[
  {
    "id": 1,
    "name": "Lake Titicaca",
    "acceptedAnswers": ["titicaca", "lake titicaca", "lago titicaca"],
    "lat": -15.8402,
    "lng": -69.3343,
    "hint": "Highest navigable lake in the world, on the Peru-Bolivia border",
    "difficulty": "easy"
  },
  {
    "id": 2,
    "name": "Lake Maracaibo",
    "acceptedAnswers": ["maracaibo", "lake maracaibo", "lago de maracaibo"],
    "lat": 9.8000,
    "lng": -71.5600,
    "hint": "Large brackish tidal bay in Venezuela, one of the oldest lakes on Earth",
    "difficulty": "medium"
  },
  {
    "id": 3,
    "name": "Lake Poopo",
    "acceptedAnswers": ["poopo", "lake poopo", "lago poopó", "poopó"],
    "lat": -18.5500,
    "lng": -67.0800,
    "hint": "Saline lake in the Bolivian Altiplano that has repeatedly dried up",
    "difficulty": "hard"
  },
  {
    "id": 4,
    "name": "Buenos Aires Lake",
    "acceptedAnswers": ["buenos aires lake", "lago buenos aires", "lake general carrera"],
    "lat": -46.5500,
    "lng": -71.5000,
    "hint": "Deep glacial lake shared by Argentina and Chile in Patagonia",
    "difficulty": "hard"
  },
  {
    "id": 5,
    "name": "Lago Argentino",
    "acceptedAnswers": ["lago argentino", "lake argentino", "argentino"],
    "lat": -50.2000,
    "lng": -72.5000,
    "hint": "Largest freshwater lake in Argentina, in Patagonia near Perito Moreno Glacier",
    "difficulty": "hard"
  },
  {
    "id": 6,
    "name": "Nahuel Huapi",
    "acceptedAnswers": ["nahuel huapi", "lake nahuel huapi", "lago nahuel huapi"],
    "lat": -41.0000,
    "lng": -71.5000,
    "hint": "Glacial lake in the Argentine Lake District near Bariloche",
    "difficulty": "hard"
  },
  {
    "id": 7,
    "name": "General Carrera Lake",
    "acceptedAnswers": ["general carrera", "general carrera lake", "lago general carrera"],
    "lat": -46.5800,
    "lng": -72.1000,
    "hint": "Second-largest lake in South America, known for its marble caves",
    "difficulty": "hard"
  },
  {
    "id": 8,
    "name": "Lake Rogaguado",
    "acceptedAnswers": ["rogaguado", "lake rogaguado", "lago rogaguado"],
    "lat": -13.0000,
    "lng": -65.9000,
    "hint": "Shallow lake in the Bolivian Amazon lowlands",
    "difficulty": "hard"
  },
  {
    "id": 9,
    "name": "Lake Junin",
    "acceptedAnswers": ["junin", "lake junin", "lago junin", "junín"],
    "lat": -11.0200,
    "lng": -76.1200,
    "hint": "Second-largest lake in Peru, in the central Andes highlands",
    "difficulty": "hard"
  },
  {
    "id": 10,
    "name": "Lago Sarmiento",
    "acceptedAnswers": ["lago sarmiento", "sarmiento", "lake sarmiento"],
    "lat": -51.0500,
    "lng": -72.7500,
    "hint": "Lake in Torres del Paine National Park, Chile, known for its blue color",
    "difficulty": "hard"
  },
  {
    "id": 11,
    "name": "Salar de Uyuni",
    "acceptedAnswers": ["salar de uyuni", "uyuni", "uyuni salt flat"],
    "lat": -20.1338,
    "lng": -67.4891,
    "hint": "World's largest salt flat in Bolivia, a vast mirror when covered with water",
    "difficulty": "easy"
  },
  {
    "id": 12,
    "name": "Lagoa dos Patos",
    "acceptedAnswers": ["lagoa dos patos", "patos lagoon"],
    "lat": -31.5000,
    "lng": -51.5000,
    "hint": "Largest lagoon in Brazil, in Rio Grande do Sul, separated from the Atlantic by a sandbar",
    "difficulty": "hard"
  },
  {
    "id": 13,
    "name": "Lake Valencia",
    "acceptedAnswers": ["lake valencia", "lago de valencia"],
    "lat": 10.2000,
    "lng": -67.7500,
    "hint": "Largest natural lake entirely within Venezuela, in the Aragua-Carabobo valley",
    "difficulty": "hard"
  },
  {
    "id": 14,
    "name": "Lake Llanquihue",
    "acceptedAnswers": ["llanquihue", "lake llanquihue", "lago llanquihue"],
    "lat": -41.1167,
    "lng": -72.8000,
    "hint": "Second-largest lake in Chile, in the Lake District with views of Osorno Volcano",
    "difficulty": "hard"
  },
  {
    "id": 15,
    "name": "Laguna Colorada",
    "acceptedAnswers": ["laguna colorada"],
    "lat": -22.1833,
    "lng": -67.7833,
    "hint": "Striking red-colored shallow salt lake in Bolivia's Eduardo Avaroa Reserve, home to flamingos",
    "difficulty": "medium"
  },
  {
    "id": 16,
    "name": "Lake O'Higgins",
    "acceptedAnswers": ["lake o'higgins", "lago o'higgins", "lake san martin"],
    "lat": -48.9167,
    "lng": -72.5000,
    "hint": "Deepest lake in the Americas at 836m, shared by Chile and Argentina in Patagonia",
    "difficulty": "hard"
  },
  {
    "id": 17,
    "name": "Laguna del Carbon",
    "acceptedAnswers": ["laguna del carbon", "laguna del carbón"],
    "lat": -49.5833,
    "lng": -68.3500,
    "hint": "Salt lake in Argentina containing the lowest point in the Western Hemisphere at -105m",
    "difficulty": "hard"
  },
  {
    "id": 18,
    "name": "Itaipu Reservoir",
    "acceptedAnswers": ["itaipu reservoir", "itaipu lake", "itaipu"],
    "lat": -25.4083,
    "lng": -54.5917,
    "hint": "Massive reservoir behind the Itaipu Dam on the Brazil-Paraguay border",
    "difficulty": "medium"
  },
  {
    "id": 19,
    "name": "Lake Todos Los Santos",
    "acceptedAnswers": ["todos los santos", "lake todos los santos", "lago todos los santos"],
    "lat": -41.1333,
    "lng": -72.1833,
    "hint": "Emerald-green glacial lake in Chile's Lake District surrounded by volcanoes",
    "difficulty": "hard"
  },
  {
    "id": 20,
    "name": "Lago Pehoe",
    "acceptedAnswers": ["lago pehoe", "lake pehoe", "pehoe"],
    "lat": -51.0833,
    "lng": -73.0667,
    "hint": "Iconic turquoise lake in Torres del Paine with a famous view of the granite towers",
    "difficulty": "hard"
  }
]
