[
  {
    "id": 1,
    "name": "Lake Titicaca",
    "acceptedAnswers": ["titicaca", "lake titicaca", "lago titicaca"],
    "lat": -15.8402,
    "lng": -69.3343,
    "hint": "Highest navigable lake in the world, on the Peru-Bolivia border",
    "difficulty": "easy"
  },
  {
    "id": 2,
    "name": "Lake Maracaibo",
    "acceptedAnswers": ["maracaibo", "lake maracaibo", "lago de maracaibo"],
    "lat": 9.8000,
    "lng": -71.5600,
    "hint": "Large brackish tidal bay in Venezuela, one of the oldest lakes on Earth",
    "difficulty": "medium"
  },
  {
    "id": 3,
    "name": "Lake Poopo",
    "acceptedAnswers": ["poopo", "lake poopo", "lago poopó", "poopó"],
    "lat": -18.5500,
    "lng": -67.0800,
    "hint": "Saline lake in the Bolivian Altiplano that has repeatedly dried up",
    "difficulty": "hard"
  },
  {
    "id": 4,
    "name": "Buenos Aires Lake",
    "acceptedAnswers": ["buenos aires lake", "lago buenos aires", "lake general carrera"],
    "lat": -46.5500,
    "lng": -71.5000,
    "hint": "Deep glacial lake shared by Argentina and Chile in Patagonia",
    "difficulty": "hard"
  },
  {
    "id": 5,
    "name": "Lago Argentino",
    "acceptedAnswers": ["lago argentino", "lake argentino", "argentino"],
    "lat": -50.2000,
    "lng": -72.5000,
    "hint": "Largest freshwater lake in Argentina, in Patagonia near Perito Moreno Glacier",
    "difficulty": "hard"
  },
  {
    "id": 6,
    "name": "Nahuel Huapi",
    "acceptedAnswers": ["nahuel huapi", "lake nahuel huapi", "lago nahuel huapi"],
    "lat": -41.0000,
    "lng": -71.5000,
    "hint": "Glacial lake in the Argentine Lake District near Bariloche",
    "difficulty": "hard"
  },
  {
    "id": 7,
    "name": "General Carrera Lake",
    "acceptedAnswers": ["general carrera", "general carrera lake", "lago general carrera"],
    "lat": -46.5800,
    "lng": -72.1000,
    "hint": "Second-largest lake in South America, known for its marble caves",
    "difficulty": "hard"
  },
  {
    "id": 8,
    "name": "Lake Rogaguado",
    "acceptedAnswers": ["rogaguado", "lake rogaguado", "lago rogaguado"],
    "lat": -13.0000,
    "lng": -65.9000,
    "hint": "Shallow lake in the Bolivian Amazon lowlands",
    "difficulty": "hard"
  },
  {
    "id": 9,
    "name": "Lake Junin",
    "acceptedAnswers": ["junin", "lake junin", "lago junin", "junín"],
    "lat": -11.0200,
    "lng": -76.1200,
    "hint": "Second-largest lake in Peru, in the central Andes highlands",
    "difficulty": "hard"
  },
  {
    "id": 10,
    "name": "Lago Sarmiento",
    "acceptedAnswers": ["lago sarmiento", "sarmiento", "lake sarmiento"],
    "lat": -51.0500,
    "lng": -72.7500,
    "hint": "Lake in Torres del Paine National Park, Chile, known for its blue color",
    "difficulty": "hard"
  }
]
