[
  {
    "id": 1,
    "name": "Yangtze",
    "acceptedAnswers": ["yangtze", "yangtze river", "chang jiang", "changjiang"],
    "lat": 30.8250,
    "lng": 111.0000,
    "hint": "Longest river in Asia, flows through central China to the East China Sea",
    "difficulty": "easy"
  },
  {
    "id": 2,
    "name": "Yellow River",
    "acceptedAnswers": ["yellow river", "huang he", "huanghe"],
    "lat": 35.0000,
    "lng": 110.0000,
    "hint": "Second longest river in China, cradle of Chinese civilization",
    "difficulty": "easy"
  },
  {
    "id": 3,
    "name": "Ganges",
    "acceptedAnswers": ["ganges", "ganga", "ganges river"],
    "lat": 25.2677,
    "lng": 83.0145,
    "hint": "Sacred river of Hinduism flowing through northern India",
    "difficulty": "easy"
  },
  {
    "id": 4,
    "name": "Mekong",
    "acceptedAnswers": ["mekong", "mekong river", "mae khong"],
    "lat": 15.1200,
    "lng": 105.8000,
    "hint": "Major Southeast Asian river flowing through six countries",
    "difficulty": "medium"
  },
  {
    "id": 5,
    "name": "Indus",
    "acceptedAnswers": ["indus", "indus river", "sindhu"],
    "lat": 27.0000,
    "lng": 68.5000,
    "hint": "River that gave India its name, flows through Pakistan",
    "difficulty": "medium"
  },
  {
    "id": 6,
    "name": "Brahmaputra",
    "acceptedAnswers": ["brahmaputra", "brahmaputra river", "tsangpo"],
    "lat": 26.1500,
    "lng": 91.7500,
    "hint": "Major river originating in Tibet, flowing through India and Bangladesh",
    "difficulty": "hard"
  },
  {
    "id": 7,
    "name": "Tigris",
    "acceptedAnswers": ["tigris", "tigris river", "dijla", "dicle"],
    "lat": 33.3400,
    "lng": 44.4000,
    "hint": "One of two great rivers of Mesopotamia, flows through Baghdad",
    "difficulty": "medium"
  },
  {
    "id": 8,
    "name": "Euphrates",
    "acceptedAnswers": ["euphrates", "euphrates river", "al-furat", "firat"],
    "lat": 34.3500,
    "lng": 38.0000,
    "hint": "Longest river in western Asia, paired with the Tigris in ancient Mesopotamia",
    "difficulty": "medium"
  },
  {
    "id": 9,
    "name": "Ob",
    "acceptedAnswers": ["ob", "ob river"],
    "lat": 61.0000,
    "lng": 73.0000,
    "hint": "Major Siberian river flowing north into the Arctic Ocean",
    "difficulty": "hard"
  },
  {
    "id": 10,
    "name": "Irrawaddy",
    "acceptedAnswers": ["irrawaddy", "irrawaddy river", "ayeyarwady"],
    "lat": 17.5000,
    "lng": 95.5000,
    "hint": "Most important river of Myanmar, flowing south through the country's heartland",
    "difficulty": "hard"
  }
]
