[
  {
    "id": 1,
    "name": "Cairo",
    "acceptedAnswers": ["cairo", "al-qahira", "al qahira"],
    "lat": 30.0444,
    "lng": 31.2357,
    "hint": "Capital of Egypt, largest city in Africa and the Arab world",
    "difficulty": "easy"
  },
  {
    "id": 2,
    "name": "Lagos",
    "acceptedAnswers": ["lagos"],
    "lat": 6.5244,
    "lng": 3.3792,
    "hint": "Largest city in Nigeria and one of the fastest-growing in the world",
    "difficulty": "easy"
  },
  {
    "id": 3,
    "name": "Nairobi",
    "acceptedAnswers": ["nairobi"],
    "lat": -1.2921,
    "lng": 36.8219,
    "hint": "Capital of Kenya, only capital city with a national park",
    "difficulty": "easy"
  },
  {
    "id": 4,
    "name": "Cape Town",
    "acceptedAnswers": ["cape town", "kaapstad"],
    "lat": -33.9249,
    "lng": 18.4241,
    "hint": "Legislative capital of South Africa, beneath Table Mountain",
    "difficulty": "easy"
  },
  {
    "id": 5,
    "name": "Johannesburg",
    "acceptedAnswers": ["johannesburg", "joburg", "jozi"],
    "lat": -26.2041,
    "lng": 28.0473,
    "hint": "Largest city in South Africa, built on the gold mining industry",
    "difficulty": "easy"
  },
  {
    "id": 6,
    "name": "Addis Ababa",
    "acceptedAnswers": ["addis ababa", "addis"],
    "lat": 9.0250,
    "lng": 38.7469,
    "hint": "Capital of Ethiopia and seat of the African Union",
    "difficulty": "medium"
  },
  {
    "id": 7,
    "name": "Casablanca",
    "acceptedAnswers": ["casablanca", "dar el beida"],
    "lat": 33.5731,
    "lng": -7.5898,
    "hint": "Largest city in Morocco, major Atlantic port",
    "difficulty": "easy"
  },
  {
    "id": 8,
    "name": "Dar es Salaam",
    "acceptedAnswers": ["dar es salaam", "dar"],
    "lat": -6.7924,
    "lng": 39.2083,
    "hint": "Largest city in Tanzania, former capital on the Indian Ocean coast",
    "difficulty": "medium"
  },
  {
    "id": 9,
    "name": "Kinshasa",
    "acceptedAnswers": ["kinshasa"],
    "lat": -4.4419,
    "lng": 15.2663,
    "hint": "Capital of the Democratic Republic of Congo, faces Brazzaville across the river",
    "difficulty": "medium"
  },
  {
    "id": 10,
    "name": "Accra",
    "acceptedAnswers": ["accra"],
    "lat": 5.6037,
    "lng": -0.1870,
    "hint": "Capital of Ghana, located on the Gulf of Guinea coast",
    "difficulty": "medium"
  },
  {
    "id": 11,
    "name": "Algiers",
    "acceptedAnswers": ["algiers", "alger", "al-jazair"],
    "lat": 36.7538,
    "lng": 3.0588,
    "hint": "Capital of Algeria, the White City on the Mediterranean",
    "difficulty": "medium"
  },
  {
    "id": 12,
    "name": "Khartoum",
    "acceptedAnswers": ["khartoum", "khartum"],
    "lat": 15.5007,
    "lng": 32.5599,
    "hint": "Capital of Sudan, where the Blue and White Nile converge",
    "difficulty": "medium"
  }
]
