[
  {
    "id": 1,
    "name": "Cairo",
    "acceptedAnswers": ["cairo", "al-qahira", "al qahira"],
    "lat": 30.0444,
    "lng": 31.2357,
    "hint": "Capital of Egypt, largest city in Africa and the Arab world",
    "difficulty": "easy"
  },
  {
    "id": 2,
    "name": "Lagos",
    "acceptedAnswers": ["lagos"],
    "lat": 6.5244,
    "lng": 3.3792,
    "hint": "Largest city in Nigeria and one of the fastest-growing in the world",
    "difficulty": "easy"
  },
  {
    "id": 3,
    "name": "Nairobi",
    "acceptedAnswers": ["nairobi"],
    "lat": -1.2921,
    "lng": 36.8219,
    "hint": "Capital of Kenya, only capital city with a national park",
    "difficulty": "easy"
  },
  {
    "id": 4,
    "name": "Cape Town",
    "acceptedAnswers": ["cape town", "kaapstad"],
    "lat": -33.9249,
    "lng": 18.4241,
    "hint": "Legislative capital of South Africa, beneath Table Mountain",
    "difficulty": "easy"
  },
  {
    "id": 5,
    "name": "Johannesburg",
    "acceptedAnswers": ["johannesburg", "joburg", "jozi"],
    "lat": -26.2041,
    "lng": 28.0473,
    "hint": "Largest city in South Africa, built on the gold mining industry",
    "difficulty": "easy"
  },
  {
    "id": 6,
    "name": "Addis Ababa",
    "acceptedAnswers": ["addis ababa", "addis"],
    "lat": 9.0250,
    "lng": 38.7469,
    "hint": "Capital of Ethiopia and seat of the African Union",
    "difficulty": "medium"
  },
  {
    "id": 7,
    "name": "Casablanca",
    "acceptedAnswers": ["casablanca", "dar el beida"],
    "lat": 33.5731,
    "lng": -7.5898,
    "hint": "Largest city in Morocco, major Atlantic port",
    "difficulty": "easy"
  },
  {
    "id": 8,
    "name": "Dar es Salaam",
    "acceptedAnswers": ["dar es salaam", "dar"],
    "lat": -6.7924,
    "lng": 39.2083,
    "hint": "Largest city in Tanzania, former capital on the Indian Ocean coast",
    "difficulty": "medium"
  },
  {
    "id": 9,
    "name": "Kinshasa",
    "acceptedAnswers": ["kinshasa"],
    "lat": -4.4419,
    "lng": 15.2663,
    "hint": "Capital of the Democratic Republic of Congo, faces Brazzaville across the river",
    "difficulty": "medium"
  },
  {
    "id": 10,
    "name": "Accra",
    "acceptedAnswers": ["accra"],
    "lat": 5.6037,
    "lng": -0.1870,
    "hint": "Capital of Ghana, located on the Gulf of Guinea coast",
    "difficulty": "medium"
  },
  {
    "id": 11,
    "name": "Algiers",
    "acceptedAnswers": ["algiers", "alger", "al-jazair"],
    "lat": 36.7538,
    "lng": 3.0588,
    "hint": "Capital of Algeria, the White City on the Mediterranean",
    "difficulty": "medium"
  },
  {
    "id": 12,
    "name": "Khartoum",
    "acceptedAnswers": ["khartoum", "khartum"],
    "lat": 15.5007,
    "lng": 32.5599,
    "hint": "Capital of Sudan, where the Blue and White Nile converge",
    "difficulty": "medium"
  },
  {
    "id": 13,
    "name": "Luanda",
    "acceptedAnswers": ["luanda", "loanda"],
    "lat": -8.8390,
    "lng": 13.2894,
    "hint": "Capital of Angola, a major port city on the Atlantic coast",
    "difficulty": "hard"
  },
  {
    "id": 14,
    "name": "Kampala",
    "acceptedAnswers": ["kampala"],
    "lat": 0.3476,
    "lng": 32.5825,
    "hint": "Capital of Uganda, built on seven hills near Lake Victoria",
    "difficulty": "medium"
  },
  {
    "id": 15,
    "name": "Abidjan",
    "acceptedAnswers": ["abidjan"],
    "lat": 5.3600,
    "lng": -4.0083,
    "hint": "Economic capital of Ivory Coast, largest city in the country",
    "difficulty": "hard"
  },
  {
    "id": 16,
    "name": "Maputo",
    "acceptedAnswers": ["maputo", "lourenco marques"],
    "lat": -25.9692,
    "lng": 32.5732,
    "hint": "Capital of Mozambique, a port city on the Indian Ocean",
    "difficulty": "hard"
  },
  {
    "id": 17,
    "name": "Tunis",
    "acceptedAnswers": ["tunis"],
    "lat": 36.8065,
    "lng": 10.1815,
    "hint": "Capital of Tunisia, located near the ruins of ancient Carthage",
    "difficulty": "medium"
  },
  {
    "id": 18,
    "name": "Lusaka",
    "acceptedAnswers": ["lusaka"],
    "lat": -15.3875,
    "lng": 28.3228,
    "hint": "Capital of Zambia, located on a plateau in the southern part of the country",
    "difficulty": "hard"
  },
  {
    "id": 19,
    "name": "Bamako",
    "acceptedAnswers": ["bamako"],
    "lat": 12.6392,
    "lng": -8.0029,
    "hint": "Capital of Mali, situated on the banks of the Niger River",
    "difficulty": "hard"
  },
  {
    "id": 20,
    "name": "Mogadishu",
    "acceptedAnswers": ["mogadishu", "mogadiscio", "muqdisho", "hamar"],
    "lat": 2.0469,
    "lng": 45.3182,
    "hint": "Capital of Somalia, an ancient port city on the Indian Ocean coast",
    "difficulty": "hard"
  }
]
