[
  {
    "id": 1,
    "name": "Lake Eyre",
    "acceptedAnswers": ["eyre", "lake eyre", "kati thanda"],
    "lat": -28.3700,
    "lng": 137.3700,
    "hint": "Largest lake in Australia, usually a dry salt flat, lowest point on the continent",
    "difficulty": "medium"
  },
  {
    "id": 2,
    "name": "Lake Taupo",
    "acceptedAnswers": ["taupo", "lake taupo"],
    "lat": -38.8000,
    "lng": 175.9000,
    "hint": "Largest lake in New Zealand, formed by a massive volcanic eruption",
    "difficulty": "medium"
  },
  {
    "id": 3,
    "name": "Lake Torrens",
    "acceptedAnswers": ["torrens", "lake torrens"],
    "lat": -31.3500,
    "lng": 137.8500,
    "hint": "Large salt lake in South Australia, usually dry",
    "difficulty": "hard"
  },
  {
    "id": 4,
    "name": "Lake Gairdner",
    "acceptedAnswers": ["gairdner", "lake gairdner"],
    "lat": -31.6000,
    "lng": 136.0000,
    "hint": "Large salt lake in South Australia, used for land speed record attempts",
    "difficulty": "hard"
  },
  {
    "id": 5,
    "name": "Lake Alexandrina",
    "acceptedAnswers": ["alexandrina", "lake alexandrina"],
    "lat": -35.4300,
    "lng": 139.1300,
    "hint": "Freshwater lake near the mouth of the Murray River in South Australia",
    "difficulty": "hard"
  },
  {
    "id": 6,
    "name": "Lake Argyle",
    "acceptedAnswers": ["argyle", "lake argyle"],
    "lat": -16.1100,
    "lng": 128.7400,
    "hint": "Largest artificial lake in Australia, in Western Australia's Kimberley region",
    "difficulty": "hard"
  },
  {
    "id": 7,
    "name": "Lake Te Anau",
    "acceptedAnswers": ["te anau", "lake te anau"],
    "lat": -45.4200,
    "lng": 167.7500,
    "hint": "Largest lake in the South Island of New Zealand, in Fiordland",
    "difficulty": "hard"
  },
  {
    "id": 8,
    "name": "Lake Waikaremoana",
    "acceptedAnswers": ["waikaremoana", "lake waikaremoana"],
    "lat": -38.7500,
    "lng": 177.0800,
    "hint": "Mountain lake in New Zealand's North Island, in Te Urewera",
    "difficulty": "hard"
  },
  {
    "id": 9,
    "name": "Lake Rotorua",
    "acceptedAnswers": ["rotorua", "lake rotorua"],
    "lat": -38.0800,
    "lng": 176.2700,
    "hint": "Geothermal lake on New Zealand's North Island, in a volcanic zone",
    "difficulty": "hard"
  },
  {
    "id": 10,
    "name": "Lake Hillier",
    "acceptedAnswers": ["hillier", "lake hillier"],
    "lat": -34.0944,
    "lng": 123.2017,
    "hint": "Distinctive pink-colored lake on an island off Western Australia",
    "difficulty": "medium"
  },
  {
    "id": 11,
    "name": "Lake Wakatipu",
    "acceptedAnswers": ["wakatipu", "lake wakatipu"],
    "lat": -45.0300,
    "lng": 168.5000,
    "hint": "Long Z-shaped lake in Otago, New Zealand, at the foot of Queenstown",
    "difficulty": "medium"
  },
  {
    "id": 12,
    "name": "Lake Burley Griffin",
    "acceptedAnswers": ["burley griffin", "lake burley griffin"],
    "lat": -35.2900,
    "lng": 149.1200,
    "hint": "Artificial lake at the heart of Canberra, Australia's capital, named after the city's architect",
    "difficulty": "medium"
  },
  {
    "id": 13,
    "name": "Lake Wanaka",
    "acceptedAnswers": ["wanaka", "lake wanaka"],
    "lat": -44.6950,
    "lng": 169.1400,
    "hint": "Glacial lake in the Otago region of New Zealand, famous for its lone willow tree",
    "difficulty": "medium"
  },
  {
    "id": 14,
    "name": "Lake Disappointment",
    "acceptedAnswers": ["disappointment", "lake disappointment"],
    "lat": -23.5000,
    "lng": 122.8000,
    "hint": "Dry salt lake in Western Australia named by an explorer who was hoping for fresh water",
    "difficulty": "hard"
  },
  {
    "id": 15,
    "name": "Lake Mackay",
    "acceptedAnswers": ["mackay", "lake mackay", "wilkinkarra"],
    "lat": -22.4000,
    "lng": 128.8000,
    "hint": "Largest lake in the Northern Territory of Australia, an ephemeral salt lake",
    "difficulty": "hard"
  }
]
