[
  {
    "id": 1,
    "name": "Murray",
    "acceptedAnswers": ["murray", "murray river"],
    "lat": -35.4000,
    "lng": 139.4000,
    "hint": "Longest river in Australia, flowing through New South Wales and South Australia",
    "difficulty": "easy"
  },
  {
    "id": 2,
    "name": "Darling",
    "acceptedAnswers": ["darling", "darling river"],
    "lat": -32.0000,
    "lng": 145.0000,
    "hint": "Longest tributary of the Murray, in New South Wales",
    "difficulty": "medium"
  },
  {
    "id": 3,
    "name": "Waikato",
    "acceptedAnswers": ["waikato", "waikato river"],
    "lat": -37.7833,
    "lng": 175.2833,
    "hint": "Longest river in New Zealand, flows from Lake Taupo on the North Island",
    "difficulty": "medium"
  },
  {
    "id": 4,
    "name": "Sepik",
    "acceptedAnswers": ["sepik", "sepik river"],
    "lat": -4.0000,
    "lng": 143.0000,
    "hint": "Longest river in Papua New Guinea, known for its winding course",
    "difficulty": "hard"
  },
  {
    "id": 5,
    "name": "Fly",
    "acceptedAnswers": ["fly", "fly river"],
    "lat": -7.5000,
    "lng": 141.5000,
    "hint": "Second-longest river in Papua New Guinea, with a vast delta",
    "difficulty": "hard"
  },
  {
    "id": 6,
    "name": "Murrumbidgee",
    "acceptedAnswers": ["murrumbidgee", "murrumbidgee river"],
    "lat": -34.7500,
    "lng": 146.0000,
    "hint": "Major river of New South Wales, a tributary of the Murray",
    "difficulty": "hard"
  },
  {
    "id": 7,
    "name": "Lachlan",
    "acceptedAnswers": ["lachlan", "lachlan river"],
    "lat": -33.5000,
    "lng": 146.5000,
    "hint": "River in central New South Wales, tributary of the Murrumbidgee",
    "difficulty": "hard"
  },
  {
    "id": 8,
    "name": "Cooper Creek",
    "acceptedAnswers": ["cooper creek", "cooper"],
    "lat": -27.5000,
    "lng": 141.0000,
    "hint": "Ephemeral river in central Australia, rarely reaches Lake Eyre",
    "difficulty": "hard"
  },
  {
    "id": 9,
    "name": "Clutha",
    "acceptedAnswers": ["clutha", "clutha river"],
    "lat": -46.2500,
    "lng": 169.7000,
    "hint": "Longest river in the South Island of New Zealand",
    "difficulty": "hard"
  },
  {
    "id": 10,
    "name": "Yarra",
    "acceptedAnswers": ["yarra", "yarra river"],
    "lat": -37.8200,
    "lng": 144.9700,
    "hint": "River flowing through Melbourne, Victoria",
    "difficulty": "medium"
  }
]
